[
    {
        "location": {
            "type": "Point",
            "formattedAddress": ", Hyderabad, Telangana 500012, IN",
            "street": "",
            "city": "Hyderabad",
            "state": "Telangana",
            "zipcode": "500012",
            "country": "IN"
        },
        "careers": [
            "IOS",
            "Android"
        ],
        "photo": "no-photo.jpg",
        "scholarship": "Yes",
        "placement": true,
        "_id": "5f6f5c4657550e24f4affc48",
        "name": "DevD Training Bootcamp",
        "description": "DevD Bootcamp the Trainer offers career support and job placement assistance, including resume and LinkedIn profile preparation, mock interviews, and online networking opportunities. Students have lifetime access to course materials online and will receive a certificate of completion upon graduation.",
        "website": "https://www.newdevd.com",
        "email": "emailRollment@devd.com",
        "address": "Survey No 74 ESSI Madhapur Hyderabad 500081",
        "createAt": "2020-09-26T15:20:38.284Z",
        "slug": "devd-training-bootcamp",
        "__v": 0
    },
    {
        "location": {
            "type": "Point",
            "formattedAddress": "road number 12, Greater Hyderabad Municipal Corporation, Telangana 500659, IN",
            "street": "road number 12",
            "city": "Greater Hyderabad Municipal Corporation",
            "state": "Telangana",
            "zipcode": "500659",
            "country": "IN"
        },
        "careers": [
            "Angular",
            "JavaScript",
            "UI/UX"
        ],
        "photo": "no-photo.jpg",
        "scholarship": "Yes",
        "placement": false,
        "_id": "5f6f5c4657550e24f4affc4b",
        "name": "Mind Training Bootcamp",
        "description": "UI Developer coding bootcamp will learn the fundamental concepts of HTML, JavaScript, CSS, JQuery, Bootstrap 3, and Angular for designing and developing web pages through real-time use cases.",
        "website": "https://www.mindcode.com",
        "email": "emailRollment@mindcode.com",
        "address": "Rd Number 12, Venkateswara Colony, Banjara Hills, Hyderabad, Telangana 500034",
        "createAt": "2020-09-26T15:20:38.289Z",
        "slug": "mind-training-bootcamp",
        "__v": 0
    },
    {
        "location": {
            "type": "Point",
            "formattedAddress": ", , Telangana 500027, IN",
            "street": "",
            "city": "",
            "state": "Telangana",
            "zipcode": "500027",
            "country": "IN"
        },
        "careers": [
            "AI",
            "Machine Learning"
        ],
        "photo": "no-photo.jpg",
        "scholarship": "No",
        "placement": false,
        "_id": "5f6f5c4657550e24f4affc4c",
        "name": "Icancode Bootcamp",
        "description": "Applied Course guarantees that graduates will get a job within six months or the course fee will be refunded. Graduates of the Applied Machine Learning bootcamp will be eligible for jobs in artificial intelligence, machine learning and data science.",
        "website": "https://www.Icancode.com",
        "email": "emailRollment@Icancode.com",
        "address": "3rd Floor, Lingampally, Kachiguda, Hyderabad, Telangana 500027",
        "createAt": "2020-09-26T15:20:38.289Z",
        "slug": "icancode-bootcamp",
        "__v": 0
    },
    {
        "location": {
            "type": "Point",
            "formattedAddress": "Himayat Nagar 4th Cross Road, Hyderabad, Telangana 500029, IN",
            "street": "Himayat Nagar 4th Cross Road",
            "city": "Hyderabad",
            "state": "Telangana",
            "zipcode": "500029",
            "country": "IN"
        },
        "careers": [
            "MongoDB",
            "Angular"
        ],
        "photo": "no-photo.jpg",
        "scholarship": "No",
        "placement": false,
        "_id": "5f6f5c4657550e24f4affc49",
        "name": "The Hacking Bootcamp",
        "description": "The curriculum places less emphasis on lecture, and students should expect to start coding on Day One. Graduates will be skilled in JavaScript, HTML5, CSS3, and MongoDB. In addition to back-end technologies.",
        "website": "https://www.hackingbootcamp.com",
        "email": "emailRollment@hackingbootcamp.com",
        "address": "Mahavir Lok 4th Floor, Himayatnagar, Hyderabad, Telangana 500029",
        "createAt": "2020-09-26T15:20:38.287Z",
        "slug": "the-hacking-bootcamp",
        "__v": 0
    },
    {
        "location": {
            "type": "Point",
            "formattedAddress": ", Hyderabad, Telangana 500012, IN",
            "street": "",
            "city": "Hyderabad",
            "state": "Telangana",
            "zipcode": "500012",
            "country": "IN"
        },
        "careers": [
            "Full Stack",
            "UI/UX"
        ],
        "photo": "no-photo.jpg",
        "scholarship": "No",
        "placement": true,
        "_id": "5f6f5c4657550e24f4affc4a",
        "name": "Face Code Bootcamp",
        "description": "Coding bootcamp students are given career guidance in preparing for job interviews as well as building GitHub and LinkedIn profiles. Graduates will be eligible for tech jobs, such as Full Stack Developer, Web Developer, Programmer Analyst, and Junior Software Engineer.",
        "website": "https://www.facecode.com",
        "email": "emailRollment@facecode.com",
        "address": "18th Floor, Manjeera Trinity Corporate JNTU, Hitech City Rd, K P H B Phase 3, Kukatpally, Hyderabad, Telangana 500072",
        "createAt": "2020-09-26T15:20:38.288Z",
        "slug": "face-code-bootcamp",
        "__v": 0
    }
]